[{"__type":"KFCLocator.services.DBLocation","Latitude":27.89766,"Longitude":-81.59994,"Distance":6.39,"Address":"885 U.S. Highway 60 West","City":"Lake Wales","StateProvince":"FL","PostalCode":"33853","Country":"US","cssProperties":[{"Name":"Buffet","Value":"1"},{"Name":"LateNightHours","Value":"0"},{"Name":"BusinessPhone","Value":"(863)676-8085"}]},{"__type":"KFCLocator.services.DBLocation","Latitude":28.003813,"Longitude":-81.724075,"Distance":12.99,"Address":"401 Cypress Gardens Boulevard  S.E.","City":"Winter Haven","StateProvince":"FL","PostalCode":"33880","Country":"US","cssProperties":[{"Name":"Buffet","Value":"0"},{"Name":"LateNightHours","Value":"1"},{"Name":"BusinessPhone","Value":"(863)299-1990"}]},{"__type":"KFCLocator.services.DBLocation","Latitude":28.121804,"Longitude":-81.639955,"Distance":13.68,"Address":"35854 Highway 27","City":"Haines City","StateProvince":"FL","PostalCode":"33844","Country":"US","cssProperties":[{"Name":"Buffet","Value":"0"},{"Name":"LateNightHours","Value":"0"},{"Name":"BusinessPhone","Value":"(863)419-0310"}]},{"__type":"KFCLocator.services.DBLocation","Latitude":28.155669,"Longitude":-81.440236,"Distance":14.64,"Address":"4466 Pleasant Hill Road","City":"Poinciana","StateProvince":"FL","PostalCode":"34758","Country":"US","cssProperties":[{"Name":"Buffet","Value":"0"},{"Name":"LateNightHours","Value":"0"},{"Name":"BusinessPhone","Value":"(407)343-7404"}]},{"__type":"KFCLocator.services.DBLocation","Latitude":28.05377,"Longitude":-81.77623,"Distance":17.14,"Address":"3105 Havendale Blvd.","City":"Auburndale","StateProvince":"FL","PostalCode":"33823","Country":"US","cssProperties":[{"Name":"Buffet","Value":"1"},{"Name":"LateNightHours","Value":"1"},{"Name":"BusinessPhone","Value":"(863)967-9830"}]},{"__type":"KFCLocator.services.DBLocation","Latitude":27.908923,"Longitude":-81.843205,"Distance":20.1,"Address":"1492 N. Broadway Avenue","City":"Bartow","StateProvince":"FL","PostalCode":"33830","Country":"US","cssProperties":[{"Name":"Buffet","Value":"0"},{"Name":"LateNightHours","Value":"1"},{"Name":"BusinessPhone","Value":"(863)533-5120"}]},{"__type":"KFCLocator.services.DBLocation","Latitude":28.199028,"Longitude":-81.296383,"Distance":21.62,"Address":"2200 Old Canoe Creek RD","City":"Saint Cloud","StateProvince":"FL","PostalCode":"34772","Country":"US","cssProperties":[{"Name":"Buffet","Value":"0"},{"Name":"LateNightHours","Value":"0"},{"Name":"BusinessPhone","Value":"(407)891-8527"}]},{"__type":"KFCLocator.services.DBLocation","Latitude":28.26378,"Longitude":-81.432076,"Distance":21.96,"Address":"3185 S. John Young Parkway","City":"Kissimmee","StateProvince":"FL","PostalCode":"34746","Country":"US","cssProperties":[{"Name":"Buffet","Value":"0"},{"Name":"LateNightHours","Value":"1"},{"Name":"BusinessPhone","Value":"(407)870-8870"}]},{"__type":"KFCLocator.services.DBLocation","Latitude":28.24577,"Longitude":-81.29985,"Distance":24.1,"Address":"2733 13th St","City":"Saint Cloud","StateProvince":"FL","PostalCode":"34769","Country":"US","cssProperties":[{"Name":"Buffet","Value":"0"},{"Name":"LateNightHours","Value":"1"},{"Name":"BusinessPhone","Value":"(407)892-6650"}]},{"__type":"KFCLocator.services.DBLocation","Latitude":28.304665,"Longitude":-81.423164,"Distance":24.84,"Address":"1907 W. Irlo Bronson Hwy.","City":"Kissimmee","StateProvince":"FL","PostalCode":"34741","Country":"US","cssProperties":[{"Name":"Buffet","Value":"0"},{"Name":"LateNightHours","Value":"1"},{"Name":"BusinessPhone","Value":"(407)847-8531"}]},{"__type":"KFCLocator.services.DBLocation","Latitude":28.292875,"Longitude":-81.364875,"Distance":25.14,"Address":"1924 E Irlo Bronson Memorial Hwy.","City":"Kissimmee","StateProvince":"FL","PostalCode":"34744","Country":"US","cssProperties":[{"Name":"Buffet","Value":"0"},{"Name":"LateNightHours","Value":"1"},{"Name":"BusinessPhone","Value":"(407)932-0950"}]},{"__type":"KFCLocator.services.DBLocation","Latitude":28.332313,"Longitude":-81.51189,"Distance":26.06,"Address":"5680 W US Highway 192","City":"Kissimmee","StateProvince":"FL","PostalCode":"34746","Country":"US","cssProperties":[{"Name":"Buffet","Value":"0"},{"Name":"LateNightHours","Value":"1"},{"Name":"BusinessPhone","Value":"(407)396-4545"}]},{"__type":"KFCLocator.services.DBLocation","Latitude":28.008015,"Longitude":-81.957163,"Distance":27.04,"Address":"3025 S. Florida Avenue","City":"Lakeland","StateProvince":"FL","PostalCode":"33803","Country":"US","cssProperties":[{"Name":"Buffet","Value":"0"},{"Name":"LateNightHours","Value":"1"},{"Name":"BusinessPhone","Value":"(863)802-0774"}]},{"__type":"KFCLocator.services.DBLocation","Latitude":27.97174,"Longitude":-81.9618,"Distance":27.1,"Address":"5204 S. Florida Avenue","City":"Lakeland","StateProvince":"FL","PostalCode":"33813","Country":"US","cssProperties":[{"Name":"Buffet","Value":"1"},{"Name":"LateNightHours","Value":"1"},{"Name":"BusinessPhone","Value":"(863)644-4199"}]},{"__type":"KFCLocator.services.DBLocation","Latitude":28.054831,"Longitude":-81.950883,"Distance":27.28,"Address":"727 E. Memorial Boulevard","City":"Lakeland","StateProvince":"FL","PostalCode":"33801","Country":"US","cssProperties":[{"Name":"Buffet","Value":"0"},{"Name":"LateNightHours","Value":"1"},{"Name":"BusinessPhone","Value":"(863)688-2111"}]},{"__type":"KFCLocator.services.DBLocation","Latitude":28.34253,"Longitude":-81.42017,"Distance":27.43,"Address":"1130 W. Osceola Pkwy.","City":"Kissimmee","StateProvince":"FL","PostalCode":"34741","Country":"US","cssProperties":[{"Name":"Buffet","Value":"0"},{"Name":"LateNightHours","Value":"1"},{"Name":"BusinessPhone","Value":"(407)846-4228"}]},{"__type":"KFCLocator.services.DBLocation","Latitude":28.344926,"Longitude":-81.365663,"Distance":28.5,"Address":"1978 E. Osceola Parkway","City":"Kissimmee","StateProvince":"FL","PostalCode":"34743","Country":"US","cssProperties":[{"Name":"Buffet","Value":"0"},{"Name":"LateNightHours","Value":"1"},{"Name":"BusinessPhone","Value":"(407)348-2600"}]},{"__type":"KFCLocator.services.DBLocation","Latitude":28.367993,"Longitude":-81.504887,"Distance":28.54,"Address":"8800 Vistana Centre Dr.","City":"Orlando","StateProvince":"FL","PostalCode":"32821","Country":"US","cssProperties":[{"Name":"Buffet","Value":"0"},{"Name":"LateNightHours","Value":"0"},{"Name":"BusinessPhone","Value":""}]},{"__type":"KFCLocator.services.DBLocation","Latitude":28.350245,"Longitude":-81.674165,"Distance":28.9,"Address":"510 Cagan View Rd.","City":"Clermont","StateProvince":"FL","PostalCode":"34714","Country":"US","cssProperties":[{"Name":"Buffet","Value":"0"},{"Name":"LateNightHours","Value":"0"},{"Name":"BusinessPhone","Value":"(352)242-1304"}]},{"__type":"KFCLocator.services.DBLocation","Latitude":28.136888,"Longitude":-81.973886,"Distance":30.49,"Address":"3630 U.S. Highway 98  N.","City":"Lakeland","StateProvince":"FL","PostalCode":"33809","Country":"US","cssProperties":[{"Name":"Buffet","Value":"0"},{"Name":"LateNightHours","Value":"1"},{"Name":"BusinessPhone","Value":"(863)816-9193"}]},{"__type":"KFCLocator.services.DBLocation","Latitude":28.40716,"Longitude":-81.45419,"Distance":31.48,"Address":"5780 Central Florida Parkway","City":"Orlando","StateProvince":"FL","PostalCode":"32821","Country":"US","cssProperties":[{"Name":"Buffet","Value":"0"},{"Name":"LateNightHours","Value":"1"},{"Name":"BusinessPhone","Value":"(407)238-5464"}]},{"__type":"KFCLocator.services.DBLocation","Latitude":28.401457,"Longitude":-81.404855,"Distance":31.61,"Address":"11302 S Orange Blossom Trl","City":"Orlando","StateProvince":"FL","PostalCode":"32837","Country":"US","cssProperties":[{"Name":"Buffet","Value":"0"},{"Name":"LateNightHours","Value":"1"},{"Name":"BusinessPhone","Value":"(407)859-1337"}]},{"__type":"KFCLocator.services.DBLocation","Latitude":27.491978,"Longitude":-81.48437,"Distance":32.14,"Address":"960 U.S. Highway 27  N.","City":"Sebring","StateProvince":"FL","PostalCode":"33870","Country":"US","cssProperties":[{"Name":"Buffet","Value":"0"},{"Name":"LateNightHours","Value":"0"},{"Name":"BusinessPhone","Value":"(863)402-1150"}]},{"__type":"KFCLocator.services.DBLocation","Latitude":27.537005,"Longitude":-81.80926,"Distance":33.99,"Address":"899 S. Sixth Avenue","City":"Wauchula","StateProvince":"FL","PostalCode":"33873","Country":"US","cssProperties":[{"Name":"Buffet","Value":"0"},{"Name":"LateNightHours","Value":"0"},{"Name":"BusinessPhone","Value":"(941)773-4975"}]},{"__type":"KFCLocator.services.DBLocation","Latitude":28.462451,"Longitude":-81.464985,"Distance":35.21,"Address":"6217 International Rd.","City":"Orlando","StateProvince":"FL","PostalCode":"32819","Country":"US","cssProperties":[{"Name":"Buffet","Value":"0"},{"Name":"LateNightHours","Value":"1"},{"Name":"BusinessPhone","Value":"(407)352-9203"}]},{"__type":"KFCLocator.services.DBLocation","Latitude":28.4621,"Longitude":-81.3975,"Distance":35.8,"Address":"7155 S Orange Blossom Trail","City":"Orlando","StateProvince":"FL","PostalCode":"32809","Country":"US","cssProperties":[{"Name":"Buffet","Value":"0"},{"Name":"LateNightHours","Value":"1"},{"Name":"BusinessPhone","Value":"(407)851-1080"}]},{"__type":"KFCLocator.services.DBLocation","Latitude":27.990443,"Longitude":-82.121815,"Distance":36.93,"Address":"2305 South Collins Avenue","City":"Plant City","StateProvince":"FL","PostalCode":"33566","Country":"US","cssProperties":[{"Name":"Buffet","Value":"0"},{"Name":"LateNightHours","Value":"0"},{"Name":"BusinessPhone","Value":"(813)752-0437"}]},{"__type":"KFCLocator.services.DBLocation","Latitude":28.487051,"Longitude":-81.458604,"Distance":36.94,"Address":"5173 Kirkman Road","City":"Orlando","StateProvince":"FL","PostalCode":"32819","Country":"US","cssProperties":[{"Name":"Buffet","Value":"0"},{"Name":"LateNightHours","Value":"1"},{"Name":"BusinessPhone","Value":"(407)351-8669"}]},{"__type":"KFCLocator.services.DBLocation","Latitude":28.48837,"Longitude":-81.417619,"Distance":37.36,"Address":"5200 S John Young Parkway","City":"Orlando","StateProvince":"FL","PostalCode":"32839","Country":"US","cssProperties":[{"Name":"Buffet","Value":"0"},{"Name":"LateNightHours","Value":"1"},{"Name":"BusinessPhone","Value":"(407)248-2247"}]},{"__type":"KFCLocator.services.DBLocation","Latitude":28.472626,"Longitude":-81.289747,"Distance":38.39,"Address":"6041 S. Goldenrod Rd.","City":"Orlando","StateProvince":"FL","PostalCode":"32822","Country":"US","cssProperties":[{"Name":"Buffet","Value":"0"},{"Name":"LateNightHours","Value":"0"},{"Name":"BusinessPhone","Value":"(407)384-8529"}]},{"__type":"KFCLocator.services.DBLocation","Latitude":28.521763,"Longitude":-81.587765,"Distance":39.39,"Address":"3300 Daniels Road","City":"Winter Garden","StateProvince":"FL","PostalCode":"34787","Country":"US","cssProperties":[{"Name":"Buffet","Value":"0"},{"Name":"LateNightHours","Value":"0"},{"Name":"BusinessPhone","Value":"(407)654-9298"}]},{"__type":"KFCLocator.services.DBLocation","Latitude":28.512766,"Longitude":-81.37165,"Distance":39.57,"Address":"426 East Michigan Street","City":"Orlando","StateProvince":"FL","PostalCode":"32806","Country":"US","cssProperties":[{"Name":"Buffet","Value":"0"},{"Name":"LateNightHours","Value":"0"},{"Name":"BusinessPhone","Value":"(407)428-1170"}]},{"__type":"KFCLocator.services.DBLocation","Latitude":28.49946,"Longitude":-81.309928,"Distance":39.71,"Address":"4439 S. Semoran Blvd.","City":"Orlando","StateProvince":"FL","PostalCode":"32822","Country":"US","cssProperties":[{"Name":"Buffet","Value":"0"},{"Name":"LateNightHours","Value":"1"},{"Name":"BusinessPhone","Value":"(407)382-3830"}]},{"__type":"KFCLocator.services.DBLocation","Latitude":28.550963,"Longitude":-81.580797,"Distance":41.36,"Address":"13320 W. Colonial Dr.","City":"Winter Garden","StateProvince":"FL","PostalCode":"34787","Country":"US","cssProperties":[{"Name":"Buffet","Value":"0"},{"Name":"LateNightHours","Value":"1"},{"Name":"BusinessPhone","Value":"(407)656-4101"}]},{"__type":"KFCLocator.services.DBLocation","Latitude":28.553041,"Longitude":-81.414987,"Distance":41.81,"Address":"3009 W Colonial Drive","City":"Orlando","StateProvince":"FL","PostalCode":"32808","Country":"US","cssProperties":[{"Name":"Buffet","Value":"0"},{"Name":"LateNightHours","Value":"1"},{"Name":"BusinessPhone","Value":"(407)290-5428"}]},{"__type":"KFCLocator.services.DBLocation","Latitude":28.53774,"Longitude":-81.31069,"Distance":42.21,"Address":"436 S Semoran Blvd","City":"Orlando","StateProvince":"FL","PostalCode":"32807","Country":"US","cssProperties":[{"Name":"Buffet","Value":"0"},{"Name":"LateNightHours","Value":"1"},{"Name":"BusinessPhone","Value":"(407)275-3545"}]},{"__type":"KFCLocator.services.DBLocation","Latitude":28.580705,"Longitude":-81.476253,"Distance":43.32,"Address":"2882 N Hiawassee Rd","City":"Orlando","StateProvince":"FL","PostalCode":"32818","Country":"US","cssProperties":[{"Name":"Buffet","Value":"0"},{"Name":"LateNightHours","Value":"1"},{"Name":"BusinessPhone","Value":"(407)298-2214"}]},{"__type":"KFCLocator.services.DBLocation","Latitude":28.5495,"Longitude":-81.74866,"Distance":43.41,"Address":"590 E. South Highway 50","City":"Clermont","StateProvince":"FL","PostalCode":"34711","Country":"US","cssProperties":[{"Name":"Buffet","Value":"1"},{"Name":"LateNightHours","Value":"0"},{"Name":"BusinessPhone","Value":"(352)394-3659"}]},{"__type":"KFCLocator.services.DBLocation","Latitude":28.538243,"Longitude":-81.208078,"Distance":44.52,"Address":"502 S Alafaya Trail","City":"Orlando","StateProvince":"FL","PostalCode":"32828","Country":"US","cssProperties":[{"Name":"Buffet","Value":"0"},{"Name":"LateNightHours","Value":"0"},{"Name":"BusinessPhone","Value":"(407)207-3076"}]},{"__type":"KFCLocator.services.DBLocation","Latitude":27.893777,"Longitude":-82.24672,"Distance":44.71,"Address":"2218 East Bloomingdale Avenue","City":"Valrico","StateProvince":"FL","PostalCode":"33594","Country":"US","cssProperties":[{"Name":"Buffet","Value":"0"},{"Name":"LateNightHours","Value":"0"},{"Name":"BusinessPhone","Value":"(813)684-6182"}]},{"__type":"KFCLocator.services.DBLocation","Latitude":28.237075,"Longitude":-82.183727,"Distance":45.02,"Address":"5501 North Gall Boulevard","City":"Zephyrhills","StateProvince":"FL","PostalCode":"33542","Country":"US","cssProperties":[{"Name":"Buffet","Value":"0"},{"Name":"LateNightHours","Value":"0"},{"Name":"BusinessPhone","Value":"(813)782-3502"}]},{"__type":"KFCLocator.services.DBLocation","Latitude":28.610605,"Longitude":-81.428359,"Distance":45.64,"Address":"5808 Cinderlane Pkwy.","City":"Orlando","StateProvince":"FL","PostalCode":"32810","Country":"US","cssProperties":[{"Name":"Buffet","Value":"0"},{"Name":"LateNightHours","Value":"1"},{"Name":"BusinessPhone","Value":"(407)291-4363"}]},{"__type":"KFCLocator.services.DBLocation","Latitude":27.98498,"Longitude":-82.270846,"Distance":46,"Address":"803 Dr. Martin Luther King Boulevard","City":"Seffner","StateProvince":"FL","PostalCode":"33584","Country":"US","cssProperties":[{"Name":"Buffet","Value":"0"},{"Name":"LateNightHours","Value":"0"},{"Name":"BusinessPhone","Value":"(813)681-8666"}]},{"__type":"KFCLocator.services.DBLocation","Latitude":28.56933,"Longitude":-81.227347,"Distance":46.01,"Address":"10825 E Colonial Dr","City":"Orlando","StateProvince":"FL","PostalCode":"32817","Country":"US","cssProperties":[{"Name":"Buffet","Value":"0"},{"Name":"LateNightHours","Value":"1"},{"Name":"BusinessPhone","Value":"(407)658-2286"}]},{"__type":"KFCLocator.services.DBLocation","Latitude":27.29641,"Longitude":-81.35868,"Distance":46.64,"Address":"126 U.S. 27 South","City":"Lake Placid","StateProvince":"FL","PostalCode":"33852","Country":"US","cssProperties":[{"Name":"Buffet","Value":"0"},{"Name":"LateNightHours","Value":"0"},{"Name":"BusinessPhone","Value":"(941)465-7373"}]},{"__type":"KFCLocator.services.DBLocation","Latitude":28.61165,"Longitude":-81.27914,"Distance":47.67,"Address":"4250 Aloma Ave.","City":"Winter Park","StateProvince":"FL","PostalCode":"32792","Country":"US","cssProperties":[{"Name":"Buffet","Value":"0"},{"Name":"LateNightHours","Value":"1"},{"Name":"BusinessPhone","Value":"(407)677-4970"}]},{"__type":"KFCLocator.services.DBLocation","Latitude":27.937937,"Longitude":-82.299862,"Distance":47.76,"Address":"1102 West Brandon Blvd.","City":"Brandon","StateProvince":"FL","PostalCode":"33511","Country":"US","cssProperties":[{"Name":"Buffet","Value":"0"},{"Name":"LateNightHours","Value":"0"},{"Name":"BusinessPhone","Value":"(813)689-1807"}]},{"__type":"KFCLocator.services.DBLocation","Latitude":28.351098,"Longitude":-82.187795,"Distance":49.14,"Address":"13245 U.S. Highway 301","City":"Dade City","StateProvince":"FL","PostalCode":"33525","Country":"US","cssProperties":[{"Name":"Buffet","Value":"0"},{"Name":"LateNightHours","Value":"0"},{"Name":"BusinessPhone","Value":"(352)567-5580"}]},{"__type":"KFCLocator.services.DBLocation","Latitude":28.67291,"Longitude":-81.50397,"Distance":49.63,"Address":"356 E Main Street","City":"Apopka","StateProvince":"FL","PostalCode":"32703","Country":"US","cssProperties":[{"Name":"Buffet","Value":"0"},{"Name":"LateNightHours","Value":"1"},{"Name":"BusinessPhone","Value":"(407)464-0759"}]},{"__type":"KFCLocator.services.DBLocation","Latitude":27.8817,"Longitude":-82.3267,"Distance":49.66,"Address":"7007 Us Highway 301 S.","City":"Riverview","StateProvince":"FL","PostalCode":"33569","Country":"US","cssProperties":[{"Name":"Buffet","Value":"0"},{"Name":"LateNightHours","Value":"0"},{"Name":"BusinessPhone","Value":"(813)741-9833"}]}]